     3.03           OBSERVATION DATA    M: Mixed            RINEX VERSION / TYPE
RTKCONV 2.4.3 b29                       20200718 225836 UTC PGM / RUN BY / DATE 
log: I:/xxx/xxx/xxxx/xxx                                    COMENT              
format: RTCM 3, station ID: 0                               COMENT              
0000                                                        MARKER NAME         
                                                            MARKER NUMBER       
                                                            MARKER TYPE         
                                                            OBSERVER / AGENCY   
                                                            REC # / TYPE / VERS 
                                                            ANT # / TYPE        
        0.0000        0.0000        0.0000                  APPROX POSITION XYZ 
        0.0000        0.0000        0.0000                  ANTENNA: DELTA H/E/N
G    8 C1C L1C D1C S1C C2W L2W D2W S2W                      SYS / # / OBS TYPES 
R    8 C1C L1C D1C S1C C2P L2P D2P S2P                      SYS / # / OBS TYPES 
E    8 C1B L1B D1B S1B C7Q L7Q D7Q S7Q                      SYS / # / OBS TYPES 
C    8 C1I L1I D1I S1I C7I L7I D7I S7I                      SYS / # / OBS TYPES 
                                                            0.2000 INTERVAL     
  2020     7    18    22    58   36.4000000     GPS         TIME OF FIRST OBS   
  2020     7    18    22    58   48.4000000     GPS         TIME OF LAST OBS    
G                                                           SYS / PHASE SHIFT   
R                                                           SYS / PHASE SHIFT   
E                                                           SYS / PHASE SHIFT   
C                                                           SYS / PHASE SHIFT   
  0                                                         GLONASS SLOT / FRQ #
 C1C    0.000 C1P    0.000 C2C    0.000 C2P    0.000        GLONASS COD/PHS/BIS 
                                                            END OF HEADER       
> 2020  7 18 22 58 36.6000000  0 18
G10  22285056.134   117108759.704       -2697.619          43.000    22285054.061    91253578.005       -2102.041          40.000  
G15  21482355.553   112890541.798         608.777          44.000    21482352.944    87966655.352         474.146          39.000  
G16  23266209.573   122264749.701        1650.093          40.000    23266204.962    95271233.090        1285.790          30.000  
G18  20390308.798   107151798.936        1018.671          44.000    20390303.795    83494908.369         793.776          37.000  
G20  20213720.984   106223822.630       -1003.834          43.000    20213715.266    82771810.960        -782.201          37.000  
G21  21847445.799   114809097.167       -1736.963          45.000    21847440.509    89461646.549       -1353.474          36.000  
G23  20481279.815   107629850.242       -1275.958          44.000    20481275.259    83867420.518        -994.252          37.000  
G26  24428594.305   128372953.746        2971.811          37.000    24428593.752   100031004.070        2315.654          35.000  
G27  22502067.413   118249164.482       -2561.556          43.000    22502064.000    92142216.498       -1996.213          38.000  
R 2  20473991.184   109253143.819        2737.969          47.000    20473990.237    84974667.104        2129.533          41.000  
R 3  19452288.054   104129619.320       -1417.264          46.000    19452281.603    80989704.678       -1102.484          40.000  
R 4  22540675.670   120704291.723       -4256.800          40.000    22540668.934    93881113.912       -3310.844          36.000  
R17  21250048.712   113713316.006        3223.926          44.000    21250045.514    88443698.136        2507.761          39.000  
R18  19195148.399   102465004.639         -56.021          45.000    19195146.702    79695006.269         -43.422          41.000  
E 3  26689118.612   140252255.099       -3105.329          38.000                                                                  
E 5  24155902.776   126940134.230       -1193.749          44.000                                                                  
E 9  23604022.773   124039977.383        1631.929          43.000                                                                  
E15  25024672.658   131505539.235       -2172.226          42.000                                                                  
> 2020  7 18 22 58 36.8000000  0 18
G10  22284953.208   117108219.062       -2697.768          43.000    22284951.225    91253156.768       -2101.959          40.000  
G15  21482378.425   112890662.463         608.927          44.000    21482375.870    87966749.420         474.757          39.000  
G16  23266272.168   122265078.597        1649.862          40.000    23266267.718    95271489.441        1285.611          31.000  
G18  20390347.395   107152001.586        1018.783          44.000    20390342.713    83495066.308         793.858          37.000  
G20  20213682.601   106223620.760       -1003.863          43.000    20213676.901    82771653.645        -782.231          37.000  
G21  21847379.487   114808748.657       -1737.157          45.000    21847373.679    89461374.979       -1353.623          36.000  
G23  20481231.069   107629593.950       -1275.892          44.000    20481226.530    83867220.824        -994.200          37.000  
G26  24428707.238   128373547.036        2971.819          37.000    24428707.345   100031466.369        2315.773          36.000  
G27  22501969.723   118248651.044       -2561.727          43.000    22501966.238    92141816.433       -1996.124          38.000  
R 2  20474093.680   109253690.302        2738.208          47.000    20474092.662    84975092.140        2129.681          41.000  
R 3  19452234.893   104129334.769       -1417.048          46.000    19452228.496    80989483.363       -1102.135          40.000  
R 4  22540516.404   120703439.243       -4256.718          40.000    22540509.792    93880450.884       -3310.732          36.000  
R17  21250169.060   113713959.776        3224.656          44.000    21250165.718    88444198.792        2507.821          39.000  
R18  19195145.987   102464992.343         -55.924          45.000    19195144.468    79694996.704         -43.370          41.000  
E 3  26689000.247   140251632.963       -3105.165          38.000                                                                  
E 5  24155857.139   126939894.444       -1193.339          44.000                                                                  
E 9  23604084.743   124040302.684        1632.107          43.000                                                                  
E15  25024589.710   131505103.675       -2172.323          42.000                                                                  
> 2020  7 18 22 58 37.0000000  0 18
G10  22284850.319   117107678.686       -2697.440          43.000    22284848.478    91252735.683       -2101.900          40.000  
G15  21482401.280   112890783.424         609.337          43.000    21482398.903    87966843.664         474.764          39.000  
G16  23266334.781   122265407.736        1650.116          40.000    23266330.528    95271745.895        1285.805          30.000  
G18  20390386.082   107152204.524        1019.118          44.000    20390381.293    83495224.425         794.119          37.000  
G20  20213644.237   106223419.155       -1003.468          43.000    20213638.518    82771496.550        -781.918          37.000  
G21  21847313.175   114808400.356       -1737.127          45.000    21847307.367    89461103.570       -1353.601          36.000  
G23  20481182.322   107629337.920       -1275.668          43.000    20481177.962    83867021.305        -994.021          37.000  
G26  24428820.313   128374140.528        2971.901          38.000    24428820.206   100031928.863        2315.825          36.000  
G27  22501872.033   118248137.824       -2561.765          43.000    22501868.566    92141416.496       -1996.131          38.000  
R 2  20474196.213   109254237.039        2738.185          47.000    20474195.159    84975517.375        2129.726          41.000  
R 3  19452181.804   104129050.524       -1416.557          46.000    19452175.443    80989262.288       -1101.732          40.000  
R 4  22540357.226   120702587.024       -4256.546          40.000    22540350.615    93879788.026       -3310.792          36.000  
R17  21250289.515   113714603.847        3225.058          44.000    21250285.995    88444699.704        2508.029          39.000  
R18  19195143.736   102464980.342         -55.410          45.000    19195142.306    79694987.363         -43.131          41.000  
E 3  26688881.883   140251011.133       -3104.755          38.000                                                                  
E 5  24155811.573   126939654.931       -1192.996          44.000                                                                  
E 9  23604146.748   124040628.226        1632.145          43.000                                                                  
E15  25024506.780   131504668.338       -2172.300          42.000                                                                  
> 2020  7 18 22 58 37.2000000  0 18
G10  22284747.482   117107138.360       -2697.231          43.000    22284745.856    91252314.654       -2101.751          40.000  
G15  21482424.277   112890904.455         609.672          43.000    21482421.936    87966938.006         475.189          39.000  
G16  23266397.305   122265736.949        1650.324          40.000    23266393.159    95272002.408        1285.969          30.000  
G18  20390424.732   107152407.523        1019.357          44.000    20390420.033    83495382.616         794.305          37.000  
G20  20213605.872   106223217.614       -1003.401          43.000    20213600.350    82771339.501        -781.865          37.000  
G21  21847246.863   114808052.113       -1736.956          45.000    21847241.180    89460832.251       -1353.467          36.000  
G23  20481133.611   107629081.957       -1275.355          43.000    20481129.287    83866821.870        -993.782          36.000  
G26  24428933.370   128374734.070        2971.960          38.000    24428933.191   100032391.342        2315.937          35.000  
G27  22501774.325   118247624.633       -2561.623          43.000    22501771.198    92141016.634       -1996.027          39.000  
R 2  20474298.763   109254783.832        2738.275          47.000    20474297.369    84975942.654        2129.830          40.000  
R 3  19452128.751   104128766.356       -1416.340          46.000    19452122.390    80989041.301       -1101.419          40.000  
R 4  22540198.013   120701734.855       -4256.472          40.000    22540191.652    93879125.230       -3310.546          36.000  
R17  21250409.988   113715247.973        3225.073          44.000    21250406.289    88445200.742        2508.603          39.000  
R18  19195141.520   102464968.416         -55.172          45.000    19195140.126    79694978.087         -42.900          41.000  
E 3  26688763.501   140250389.329       -3104.636          38.000                                                                  
E 5  24155766.024   126939415.481       -1192.869          44.000                                                                  
E 9  23604208.629   124040953.853        1632.458          43.000                                                                  
E15  25024423.939   131504233.030       -2172.204          42.000                                                                  
> 2020  7 18 22 58 37.4000000  0 18
G10  22284644.664   117106597.973       -2696.903          43.000    22284642.966    91251893.561       -2101.512          40.000  
G15  21482447.274   112891025.454         610.074          43.000    21482445.041    87967032.296         475.487          39.000  
G16  23266459.971   122266066.077        1650.786          40.000    23266455.969    95272258.867        1286.334          30.000  
G18  20390463.383   107152610.452        1019.580          44.000    20390458.630    83495540.737         794.484          37.000  
G20  20213567.543   106223016.023       -1002.939          43.000    20213561.914    82771182.428        -781.508          37.000  
G21  21847180.569   114807703.803       -1736.546          45.000    21847174.779    89460560.816       -1353.146          36.000  
G23  20481084.900   107628825.944       -1275.020          44.000    20481080.611    83866622.379        -993.521          36.000  
G26  24429046.320   128375327.539        2972.325          38.000    24429045.927   100032853.804        2316.190          35.000  
G27  22501676.563   118247111.357       -2561.355          43.000    22501673.615    92140616.699       -1995.744          39.000  
R 2  20474401.296   109255330.577        2738.819          47.000    20474399.598    84976367.884        2130.114          40.000  
R 3  19452075.680   104128482.152       -1415.901          46.000    19452069.390    80988820.237       -1101.270          41.000  
R 4  22540038.890   120700882.639       -4255.965          40.000    22540032.618    93878462.393       -3310.144          36.000  
R17  21250530.479   113715892.053        3225.490          44.000    21250526.566    88445701.647        2508.573          39.000  
R18  19195139.304   102464956.427         -54.874          45.000    19195138.071    79694968.792         -42.521          41.000  
E 3  26688645.065   140249767.485       -3104.227          38.000                                                                  
E 5  24155720.423   126939176.000       -1192.393          44.000                                                                  
E 9  23604270.348   124041279.400        1632.719          43.000                                                                  
E15  25024341.063   131503797.619       -2172.137          42.000                                                                  
> 2020  7 18 22 58 37.6000000  0 18
G10  22284541.881   117106057.409       -2696.754          43.000    22284540.273    91251472.364       -2101.259          40.000  
G15  21482470.218   112891146.268         610.104          43.000    21482467.931    87967126.420         475.442          39.000  
G16  23266522.549   122266395.043        1650.995          40.000    23266518.510    95272515.202        1286.490          30.000  
G18  20390501.962   107152813.196        1019.677          44.000    20390497.209    83495698.724         794.558          37.000  
G20  20213529.124   106222814.230       -1002.895          43.000    20213523.656    82771025.201        -781.471          37.000  
G21  21847114.257   114807355.275       -1736.598          45.000    21847108.431    89460289.261       -1353.191          36.000  
G23  20481036.207   107628569.743       -1274.975          44.000    20481031.650    83866422.758        -993.484          37.000  
G26  24429159.252   128375920.831        2972.541          38.000    24429158.359   100033316.055        2315.974          35.000  
G27  22501578.766   118246597.887       -2561.392          43.000    22501576.622    92140216.627       -1995.684          39.000  
R 2  20474503.614   109255877.117        2738.736          46.000    20474501.898    84976792.977        2130.128          40.000  
R 3  19452022.484   104128197.775       -1415.715          46.000    19452016.230    80988599.041       -1101.114          41.000  
R 4  22539879.766   120700030.225       -4255.824          40.000    22539873.780    93877799.407       -3310.166          36.000  
R17  21250650.916   113716535.960        3225.684          45.000    21250646.806    88446202.449        2508.700          39.000  
R18  19195136.999   102464944.277         -54.672          45.000    19195135.730    79694959.308         -42.587          41.000  
E 3  26688526.611   140249145.423       -3104.234          38.000                                                                  
E 5  24155674.785   126938936.320       -1192.326          44.000                                                                  
E 9  23604332.032   124041604.748        1632.711          43.000                                                                  
E15  25024258.115   131503362.027       -2172.032          42.000                                                                  
> 2020  7 18 22 58 37.8000000  0 18
G10  22284439.045   117105516.919       -2696.754          43.000    22284437.544    91251051.184       -2101.460          40.000  
G15  21482493.198   112891267.156         610.126          43.000    21482490.821    87967220.614         475.383          39.000  
G16  23266585.215   122266724.036        1650.778          40.000    23266580.855    95272771.555        1286.326          30.000  
G18  20390540.559   107153016.004        1019.766          44.000    20390535.949    83495856.752         794.625          37.000  
G20  20213490.724   106222612.502       -1002.939          43.000    20213485.309    82770867.989        -781.508          37.000  
G21  21847047.945   114807006.804       -1736.687          45.000    21847042.280    89460017.713       -1353.258          36.000  
G23  20480987.424   107628313.621       -1274.901          44.000    20480983.118    83866223.162        -993.425          37.000  
G26  24429272.220   128376514.174        2972.370          38.000    24429271.041   100033778.414        2316.101          35.000  
G27  22501481.058   118246084.505       -2561.221          43.000    22501479.325    92139816.581       -1995.774          39.000  
R 2  20474605.985   109256423.705        2738.662          46.000    20474604.073    84977218.122        2130.128          40.000  
R 3  19451969.395   104127913.478       -1415.655          46.000    19451962.998    80988377.938       -1101.069          41.000  
R 4  22539720.553   120699177.924       -4255.734          40.000    22539714.692    93877136.518       -3309.905          36.000  
R17  21250771.371   113717179.903        3225.490          45.000    21250767.083    88446703.324        2508.834          39.000  
R18  19195134.730   102464932.184         -54.598          46.000    19195133.443    79694949.879         -42.707          41.000  
E 3  26688408.246   140248523.472       -3104.100          38.000                                                                  
E 5  24155629.148   126938696.711       -1192.393          44.000                                                                  
E 9  23604393.734   124041930.141        1632.629          43.000                                                                  
E15  25024175.167   131502926.484       -2172.055          42.000                                                                  
> 2020  7 18 22 58 38.0000000  0 18
G10  22284336.209   117104976.575       -2696.412          43.000    22284334.815    91250630.133       -2101.147          40.000  
G15  21482516.195   112891388.184         610.380          43.000    21482513.515    87967314.915         475.584          38.000  
G16  23266647.936   122267053.234        1651.211          40.000    23266643.415    95273028.108        1286.662          30.000  
G18  20390579.210   107153218.951        1020.012          44.000    20390574.868    83496014.913         794.819          37.000  
G20  20213452.377   106222410.972       -1002.433          43.000    20213446.998    82770710.962        -781.113          37.000  
G21  21846981.669   114806658.488       -1736.330          45.000    21846976.076    89459746.305       -1352.982          36.000  
G23  20480938.731   107628057.670       -1274.453          44.000    20480934.461    83866023.742        -993.074          37.000  
G26  24429385.188   128377107.690        2972.713          38.000    24429384.188   100034240.886        2316.444          35.000  
G27  22501383.404   118245571.267       -2560.938          43.000    22501381.921    92139416.632       -1995.722          39.000  
R 2  20474708.464   109256970.456        2739.161          47.000    20474706.373    84977643.378        2130.538          40.000  
R 3  19451916.342   104127629.361       -1415.141          46.000    19451910.034    80988156.960       -1100.644          40.000  
R 4  22539561.269   120698325.750       -4255.496          40.000    22539555.568    93876473.669       -3309.943          36.000  
R17  21250891.773   113717823.999        3225.722          45.000    21250887.520    88447204.269        2508.804          39.000  
R18  19195132.550   102464920.237         -54.322          46.000    19195131.281    79694940.617         -42.200          41.000  
E 3  26688289.846   140247901.639       -3103.928          38.000                                                                  
E 5  24155583.582   126938457.248       -1191.983          44.000                                                                  
E 9  23604455.596   124042255.653        1632.905          43.000                                                                  
E15  25024092.254   131502491.071       -2171.801          42.000                                                                  
> 2020  7 18 22 58 38.2000000  0 18
G10  22284233.301   117104436.085       -2696.151          43.000    22284232.050    91250208.967       -2100.968          40.000  
G15  21482539.121   112891509.092         610.804          43.000    21482536.066    87967409.145         476.113          38.000  
G16  23266710.549   122267382.286        1651.486          40.000    23266705.831    95273284.557        1286.878          30.000  
G18  20390617.825   107153421.780        1020.415          44.000    20390613.554    83496172.934         795.132          37.000  
G20  20213413.994   106222209.258       -1002.321          43.000    20213408.669    82770553.771        -781.023          36.000  
G21  21846915.357   114806310.025       -1736.121          44.000    21846909.371    89459474.757       -1352.818          36.000  
G23  20480890.020   107627801.569       -1274.267          43.000    20480885.696    83865824.176        -992.933          37.000  
G26  24429498.121   128377701.032        2972.989          38.000    24429496.780   100034703.243        2316.675          35.000  
G27  22501285.750   118245057.888       -2560.684          43.000    22501284.338    92139016.603       -1995.386          39.000  
R 2  20474811.068   109257517.097        2739.668          47.000    20474808.852    84978068.517        2130.740          40.000  
R 3  19451863.182   104127345.097       -1414.918          46.000    19451856.892    80987935.871       -1100.354          40.000  
R 4  22539401.895   120697473.414       -4255.250          40.000    22539396.481    93875810.743       -3309.831          36.000  
R17  21251012.263   113718467.957        3226.168          45.000    21251007.903    88447705.143        2509.326          39.000  
R18  19195130.280   102464908.173         -53.912          45.000    19195129.047    79694931.236         -41.954          41.000  
E 3  26688171.375   140247279.639       -3103.839          38.000                                                                  
E 5  24155538.051   126938217.647       -1191.752          44.000                                                                  
E 9  23604517.423   124042581.034        1633.180          42.000                                                                  
E15  25024009.306   131502055.505       -2171.600          42.000                                                                  
> 2020  7 18 22 58 38.4000000  0 18
G10  22284130.411   117103895.484       -2696.523          43.000    22284129.089    91249787.728       -2101.236          40.000  
G15  21482562.047   112891629.933         610.774          43.000    21482558.920    87967503.270         475.778          38.000  
G16  23266773.126   122267711.243        1651.315          40.000    23266768.319    95273540.837        1286.744          30.000  
G18  20390656.404   107153624.494        1020.132          44.000    20390651.990    83496330.901         794.908          37.000  
G20  20213375.594   106222007.477       -1002.403          43.000    20213370.054    82770396.536        -781.091          37.000  
G21  21846849.063   114805961.448       -1736.449          44.000    21846842.862    89459203.136       -1353.072          36.000  
G23  20480841.274   107627545.362       -1274.506          43.000    20480836.824    83865624.530        -993.119          37.000  
G26  24429611.035   128378294.263        2972.646          38.000    24429609.695   100035165.453        2316.190          34.000  
G27  22501188.078   118244544.401       -2561.020          43.000    22501186.666    92138616.472       -1995.677          39.000  
R 2  20474913.529   109258063.646        2739.385          47.000    20474911.438    84978493.636        2130.643          40.000  
R 3  19451810.057   104127060.780       -1414.925          46.000    19451803.749    80987714.710       -1100.592          40.000  
R 4  22539242.521   120696620.934       -4255.809          40.000    22539237.375    93875147.731       -3309.913          36.000  
R17  21251132.701   113719111.816        3225.975          45.000    21251128.394    88448205.904        2508.998          39.000  
R18  19195128.029   102464896.021         -54.166          45.000    19195126.885    79694921.784         -42.118          41.000  
E 3  26688052.939   140246657.559       -3103.869          38.000                                                                  
E 5  24155492.468   126937977.965       -1191.923          44.000                                                                  
E 9  23604579.107   124042906.338        1633.016          42.000                                                                  
E15  25023926.323   131501619.821       -2171.966          42.000                                                                  
> 2020  7 18 22 58 38.6000000  0 18
G10  22284027.504   117103354.820       -2696.419          43.000    22284026.074    91249366.455       -2101.080          40.000  
G15  21482585.009   112891750.730         610.879          43.000    21482581.775    87967597.436         476.121          38.000  
G16  23266835.721   122268040.116        1651.278          40.000    23266831.057    95273797.099        1286.714          30.000  
G18  20390695.037   107153827.171        1020.206          44.000    20390690.516    83496488.828         794.968          37.000  
G20  20213337.157   106221805.649       -1002.276          43.000    20213331.689    82770239.286        -780.994          36.000  
G21  21846782.768   114805612.815       -1736.241          44.000    21846776.496    89458931.474       -1352.908          36.000  
G23  20480792.563   107627289.126       -1274.259          44.000    20480788.221    83865424.863        -992.925          37.000  
G26  24429723.753   128378887.383        2972.370          37.000    24429722.002   100035627.660        2316.310          34.000  
G27  22501090.406   118244030.876       -2560.885          43.000    22501089.048    92138216.331       -1995.632          39.000  
R 2  20475015.972   109258610.144        2739.482          47.000    20475013.864    84978918.672        2130.643          40.000  
R 3  19451756.843   104126776.424       -1414.701          46.000    19451750.678    80987493.516       -1100.563          40.000  
R 4  22539083.111   120695768.433       -4255.570          40.000    22539078.501    93874484.673       -3309.958          37.000  
R17  21251253.138   113719755.622        3226.005          45.000    21251248.939    88448706.656        2509.125          39.000  
R18  19195125.688   102464883.838         -53.845          45.000    19195124.598    79694912.299         -41.969          41.000  
E 3  26687934.574   140246035.380       -3104.093          38.000                                                                  
E 5  24155446.902   126937738.235       -1191.708          44.000                                                                  
E 9  23604640.791   124043231.598        1633.166          42.000                                                                  
E15  25023843.375   131501184.082       -2171.838          42.000                                                                  
> 2020  7 18 22 58 38.8000000  0 18
G10  22283924.650   117102814.330       -2696.121          43.000    22283923.381    91248945.278       -2100.924          40.000  
G15  21482608.024   112891871.714         611.326          43.000    21482604.415    87967691.687         476.396          38.000  
G16  23266898.263   122268369.179        1651.598          40.000    23266893.688    95274053.567        1286.960          30.000  
G18  20390733.634   107154030.020        1020.654          44.000    20390728.988    83496646.911         795.318          37.000  
G20  20213298.810   106221603.987       -1001.985          43.000    20213293.432    82770082.159        -780.763          37.000  
G21  21846716.474   114805264.337       -1735.972          44.000    21846710.059    89458659.981       -1352.699          36.000  
G23  20480743.834   107627033.066       -1273.954          44.000    20480739.527    83865225.352        -992.687          37.000  
G26  24429836.524   128379480.678        2972.683          37.000    24429834.630   100036089.936        2316.257          34.000  
G27  22500992.698   118243517.517       -2560.446          43.000    22500991.072    92137816.316       -1995.081          39.000  
R 2  20475118.380   109259156.821        2739.892          47.000    20475116.289    84979343.872        2131.089          40.000  
R 3  19451703.790   104126492.235       -1414.403          46.000    19451697.536    80987272.512       -1100.019          40.000  
R 4  22538923.881   120694916.052       -4255.474          40.000    22538919.342    93873821.705       -3309.950          37.000  
R17  21251373.557   113720399.582        3226.250          45.000    21251369.394    88449207.510        2509.311          39.000  
R18  19195123.454   102464871.828         -53.473          45.000    19195122.257    79694902.970         -41.582          41.000  
E 3  26687816.121   140245413.341       -3103.951          38.000                                                                  
E 5  24155401.371   126937498.655       -1191.484          44.000                                                                  
E 9  23604702.618   124043557.002        1633.493          42.000                                                                  
E15  25023760.444   131500748.493       -2171.496          41.000                                                                  
> 2020  7 18 22 58 39.0000000  0 18
G10  22283821.742   117102273.681       -2696.218          43.000    22283820.437    91248523.979       -2101.103          41.000  
G15  21482631.004   112891992.572         611.386          43.000    21482627.358    87967785.855         476.307          38.000  
G16  23266960.804   122268698.116        1651.725          40.000    23266956.266    95274309.813        1287.064          30.000  
G18  20390772.213   107154232.712        1020.467          44.000    20390767.460    83496804.836         795.169          37.000  
G20  20213260.446   106221402.188       -1001.933          43.000    20213255.192    82769924.888        -780.725          37.000  
G21  21846650.198   114804915.719       -1736.084          45.000    21846643.640    89458388.292       -1352.789          36.000  
G23  20480695.087   107626776.853       -1274.089          44.000    20480690.691    83865025.683        -992.791          37.000  
G26  24429949.296   128380073.807        2972.646          37.000    24429947.187   100036552.094        2316.108          34.000  
G27  22500895.044   118243004.045       -2560.275          43.000    22500893.007    92137416.203       -1994.939          38.000  
R 2  20475220.715   109259703.364        2739.877          47.000    20475218.750    84979768.970        2131.045          40.000  
R 3  19451650.755   104126207.918       -1414.426          46.000    19451644.304    80987051.391       -1100.071          40.000  
R 4  22538764.578   120694063.531       -4255.652          40.000    22538760.200    93873158.633       -3309.764          37.000  
R17  21251493.905   113721043.388        3226.206          45.000    21251489.902    88449708.243        2509.177          40.000  
R18  19195121.096   102464859.667         -53.689          45.000    19195119.934    79694893.523         -41.649          41.000  
E 3  26687697.578   140244791.130       -3104.122          38.000                                                                  
E 5  24155355.787   126937258.943       -1191.603          44.000                                                                  
E 9  23604764.444   124043882.288        1633.456          42.000                                                                  
E15  25023677.407   131500312.739       -2171.697          41.000                                                                  
> 2020  7 18 22 58 39.2000000  0 18
G10  22283718.888   117101733.212       -2696.307          43.000    22283717.690    91248102.843       -2101.043          41.000  
G15  21482654.073   112892113.612         611.288          43.000    21482650.231    87967880.199         476.515          38.000  
G16  23267023.453   122269027.208        1651.538          40.000    23267018.950    95274566.283        1286.915          30.000  
G18  20390810.810   107154435.620        1020.512          44.000    20390805.807    83496962.940         795.206          37.000  
G20  20213222.099   106221200.586       -1002.075          43.000    20213216.649    82769767.792        -780.837          36.000  
G21  21846583.904   114804567.279       -1736.285          45.000    21846577.453    89458116.787       -1352.945          36.000  
G23  20480646.394   107626520.846       -1274.089          44.000    20480641.766    83864826.206        -992.791          37.000  
G26  24430062.246   128380667.088        2972.229          37.000    24430059.637   100037014.443        2316.198          34.000  
G27  22500797.390   118242490.733       -2560.528          43.000    22500795.353    92137016.216       -1995.237          38.000  
R 2  20475323.141   109260250.121        2739.854          47.000    20475321.157    84980194.219        2130.940          40.000  
R 3  19451597.755   104125923.824       -1414.321          46.000    19451591.162    80986830.420       -1100.093          40.000  
R 4  22538605.240   120693211.201       -4255.481          40.000    22538601.059    93872495.714       -3309.719          37.000  
R17  21251614.253   113721687.415        3226.288          45.000    21251610.447    88450209.157        2509.296          40.000  
R18  19195118.808   102464847.746         -53.585          45.000    19195117.754    79694884.244         -41.679          41.000  
E 3  26687579.249   140244169.115       -3104.107          39.000                                                                  
E 5  24155310.311   126937019.415       -1191.655          44.000                                                                  
E 9  23604826.396   124044207.766        1633.441          43.000                                                                  
E15  25023594.459   131499877.185       -2171.861          41.000                                                                  
> 2020  7 18 22 58 39.4000000  0 18
G10  22283616.034   117101192.625       -2696.509          43.000    22283614.747    91247681.607       -2101.222          41.000  
G15  21482677.052   112892234.582         611.304          43.000    21482673.050    87967974.455         476.493          38.000  
G16  23267086.102   122269356.224        1651.434          40.000    23267081.527    95274822.678        1286.833          30.000  
G18  20390849.425   107154638.417        1020.572          44.000    20390844.208    83497120.968         795.251          37.000  
G20  20213183.698   106220998.857       -1002.201          43.000    20213178.337    82769610.594        -780.934          36.000  
G21  21846517.610   114804218.711       -1736.457          45.000    21846511.159    89457845.157       -1353.079          36.000  
G23  20480597.647   107626264.722       -1274.178          44.000    20480593.055    83864626.615        -992.866          37.000  
G26  24430175.124   128381260.286        2972.169          37.000    24430172.122   100037476.681        2316.302          33.000  
G27  22500699.717   118241977.302       -2560.811          43.000    22500697.109    92136616.142       -1995.468          38.000  
R 2  20475425.512   109260796.774        2739.854          46.000    20475423.582    84980619.391        2130.970          40.000  
R 3  19451544.756   104125639.632       -1414.359          46.000    19451538.144    80986609.373       -1100.086          40.000  
R 4  22538445.956   120692358.724       -4255.794          40.000    22538441.935    93871832.705       -3309.980          37.000  
R17  21251734.583   113722331.319        3226.094          44.000    21251730.866    88450709.997        2509.378          40.000  
R18  19195116.503   102464835.704         -53.555          45.000    19195115.556    79694874.878         -41.723          41.000  
E 3  26687460.759   140243546.982       -3104.264          39.000                                                                  
E 5  24155264.780   126936779.800       -1191.596          44.000                                                                  
E 9  23604888.348   124044533.123        1633.232          43.000                                                                  
E15  25023511.547   131499441.483       -2172.114          41.000                                                                  
> 2020  7 18 22 58 39.6000000  0 18
G10  22283513.215   117100652.102       -2696.635          43.000    22283511.821    91247260.434       -2101.252          41.000  
G15  21482700.068   112892355.692         611.698          43.000    21482696.172    87968068.815         476.560          38.000  
G16  23267148.769   122269685.326        1651.531          40.000    23267144.140    95275079.077        1286.907          29.000  
G18  20390887.969   107154841.357        1020.854          44.000    20390882.805    83497279.110         795.474          37.000  
G20  20213145.351   106220797.266       -1001.829          43.000    20213140.008    82769453.515        -780.643          36.000  
G21  21846451.352   114803870.245       -1736.285          45.000    21846444.937    89457573.637       -1352.945          36.000  
G23  20480548.901   107626008.726       -1273.925          44.000    20480544.308    83864427.133        -992.665          37.000  
G26  24430287.985   128381853.467        2971.901          37.000    24430284.536   100037938.948        2316.026          33.000  
G27  22500602.063   118241463.967       -2560.632          43.000    22500599.347    92136216.140       -1995.260          38.000  
R 2  20475528.009   109261343.574        2740.234          47.000    20475526.133    84981044.668        2131.134          40.000  
R 3  19451491.828   104125355.566       -1414.113          46.000    19451485.073    80986388.446       -1099.870          41.000  
R 4  22538286.832   120691506.364       -4255.750          40.000    22538282.704    93871169.737       -3309.928          37.000  
R17  21251854.967   113722975.357        3226.302          44.000    21251851.321    88451210.890        2509.363          40.000  
R18  19195114.234   102464823.810         -53.205          45.000    19195113.323    79694865.621         -41.418          41.000  
E 3  26687342.502   140242924.926       -3104.279          39.000                                                                  
E 5  24155219.286   126936540.308       -1191.357          44.000                                                                  
E 9  23604950.390   124044858.615        1633.530          43.000                                                                  
E15  25023428.617   131499005.856       -2172.122          41.000                                                                  
> 2020  7 18 22 58 39.8000000  0 18
G10  22283410.361   117100111.668       -2696.754          43.000    22283408.824    91246839.319       -2101.296          41.000  
G15  21482723.154   112892476.923         611.721          43.000    21482719.241    87968163.278         476.694          38.000  
G16  23267211.471   122270014.480        1651.196          40.000    23267206.736    95275335.574        1286.647          29.000  
G18  20390926.566   107155044.348        1020.534          44.000    20390921.509    83497437.298         795.221          37.000  
G20  20213107.004   106220595.740       -1002.179          43.000    20213101.429    82769296.500        -780.912          36.000  
G21  21846385.075   114803521.844       -1736.479          45.000    21846378.732    89457302.167       -1353.094          36.000  
G23  20480500.172   107625752.784       -1274.155          44.000    20480495.580    83864227.688        -992.843          37.000  
G26  24430400.953   128382446.772        2971.938          37.000    24430397.004   100038401.231        2315.676          33.000  
G27  22500504.373   118240950.720       -2560.721          43.000    22500501.282    92135816.206       -1995.364          38.000  
R 2  20475630.524   109261890.456        2740.041          47.000    20475628.487    84981470.051        2131.306          40.000  
R 3  19451438.810   104125071.607       -1414.157          46.000    19451432.217    80986167.603       -1099.884          41.000  
R 4  22538127.637   120690654.016       -4256.293          40.000    22538123.545    93870506.818       -3310.204          37.000  
R17  21251975.386   113723619.459        3226.072          45.000    21251971.776    88451711.870        2509.214          40.000  
R18  19195112.018   102464811.989         -53.488          45.000    19195111.089    79694856.456         -41.425          41.000  
E 3  26687224.263   140242302.885       -3104.853          39.000                                                                  
E 5  24155173.809   126936300.866       -1191.767          44.000                                                                  
E 9  23605012.395   124045184.206        1633.478          43.000                                                                  
E15  25023345.651   131498570.319       -2172.271          41.000                                                                  
> 2020  7 18 22 58 40.0000000  0 18
G10  22283307.596   117099571.527       -2696.724          43.000    22283305.827    91246418.423       -2101.363          40.000  
G15  21482746.205   112892598.456         611.698          43.000    21482742.524    87968257.982         476.724          38.000  
G16  23267274.155   122270343.995        1651.636          40.000    23267269.474    95275592.383        1286.990          30.000  
G18  20390965.252   107155247.667        1020.579          44.000    20390960.213    83497595.708         795.259          37.000  
G20  20213068.657   106220394.543       -1002.053          43.000    20213063.243    82769139.668        -780.815          36.000  
G21  21846318.799   114803173.771       -1736.315          45.000    21846312.652    89457030.935       -1352.967          36.000  
G23  20480451.532   107625497.158       -1274.118          44.000    20480446.869    83864028.509        -992.814          37.000  
G26  24430513.850   128383040.387        2972.139          37.000    24430509.615   100038863.740        2315.594          33.000  
G27  22500406.719   118240437.837       -2560.334          43.000    22500403.521    92135416.561       -1995.095          38.000  
R 2  20475733.163   109262437.714        2740.361          47.000    20475731.090    84981895.680        2131.440          40.000  
R 3  19451385.793   104124787.972       -1414.091          46.000    19451379.307    80985946.984       -1099.899          41.000  
R 4  22537968.638   120689801.967       -4256.271          40.000    22537964.528    93869844.113       -3310.345          37.000  
R17  21252095.895   113724263.868        3226.027          45.000    21252092.392    88452213.070        2509.087          40.000  
R18  19195109.820   102464800.539         -53.197          45.000    19195108.802    79694847.530         -41.395          41.000  
E 3  26687106.024   140241681.151       -3104.883          39.000                                                                  
E 5  24155128.333   126936061.752       -1191.670          44.000                                                                  
E 9  23605074.543   124045510.127        1633.546          43.000                                                                  
E15  25023262.721   131498135.117       -2172.114          41.000                                                                  
> 2020  7 18 22 58 40.2000000  0 18
G10  22283204.832   117099031.342       -2696.643          43.000    22283203.313    91245997.504       -2101.236          40.000  
G15  21482769.310   112892719.887         611.386          43.000    21482765.450    87968352.619         476.575          38.000  
G16  23267336.822   122270673.507        1652.008          40.000    23267332.319    95275849.095        1287.280          30.000  
G18  20391003.957   107155450.901        1020.363          44.000    20390998.900    83497754.084         795.094          37.000  
G20  20213030.364   106220193.287       -1001.866          43.000    20213024.950    82768982.902        -780.673          36.000  
G21  21846252.541   114802825.684       -1736.106          45.000    21846246.465    89456759.703       -1352.803          36.000  
G23  20480402.911   107625241.485       -1274.141          44.000    20480398.122    83863829.304        -992.836          37.000  
G26  24430626.817   128383633.935        2972.229          37.000    24430622.725   100039326.295        2316.160          33.000  
G27  22500309.136   118239924.951       -2559.962          43.000    22500306.188    92135016.898       -1994.932          38.000  
R 2  20475835.714   109262984.874        2740.167          47.000    20475833.659    84982321.272        2131.388          40.000  
R 3  19451332.776   104124504.261       -1414.217          46.000    19451326.289    80985726.315       -1099.937          41.000  
R 4  22537809.604   120688949.852       -4256.196          40.000    22537805.262    93869181.334       -3310.666          36.000  
R17  21252216.368   113724908.161        3225.714          45.000    21252212.812    88452714.175        2508.819          40.000  
R18  19195107.533   102464789.012         -53.294          45.000    19195106.657    79694838.551         -41.470          41.000  
E 3  26686987.856   140241059.289       -3105.091          39.000                                                                  
E 5  24155082.820   126935822.533       -1191.923          44.000                                                                  
E 9  23605136.728   124045835.959        1633.322          43.000                                                                  
E15  25023179.898   131497699.897       -2171.697          41.000                                                                  
> 2020  7 18 22 58 40.4000000  0 18
G10  22283101.942   117098490.960       -2696.434          43.000    22283100.566    91245576.414       -2101.125          40.000  
G15  21482792.379   112892841.097         611.386          43.000    21482788.680    87968447.069         476.471          38.000  
G16  23267399.453   122271002.840        1652.284          40.000    23267394.950    95276105.707        1287.496          30.000  
G18  20391042.607   107155653.886        1020.318          44.000    20391037.693    83497912.240         795.057          37.000  
G20  20212992.035   106219991.816       -1001.822          43.000    20212986.889    82768825.896        -780.636          36.000  
G21  21846186.283   114802477.397       -1735.897          45.000    21846180.028    89456488.297       -1352.647          36.000  
G23  20480354.218   107624985.607       -1273.947          44.000    20480349.322    83863629.896        -992.680          37.000  
G26  24430739.839   128384227.278        2972.385          38.000    24430734.854   100039788.613        2316.041          33.000  
G27  22500211.500   118239411.904       -2559.589          42.000    22500208.355    92134617.108       -1994.663          38.000  
R 2  20475938.210   109263531.825        2740.302          47.000    20475936.191    84982746.650        2131.313          40.000  
R 3  19451279.687   104124220.332       -1414.113          46.000    19451273.147    80985505.496       -1099.817          41.000  
R 4  22537650.516   120688097.483       -4256.315          41.000    22537646.049    93868518.411       -3310.397          36.000  
R17  21252336.805   113725552.160        3225.453          45.000    21252333.177    88453215.061        2508.573          40.000  
R18  19195105.317   102464777.247         -53.205          45.000    19195104.460    79694829.405         -41.373          41.000  
E 3  26686869.616   140240437.174       -3105.292          39.000                                                                  
E 5  24155037.272   126935583.041       -1192.132          44.000                                                                  
E 9  23605198.840   124046161.539        1633.292          43.000                                                                  
E15  25023096.914   131497264.510       -2171.399          41.000                                                                  
> 2020  7 18 22 58 40.6000000  0 18
G10  22282998.998   117097950.359       -2696.665          43.000    22282997.694    91245155.161       -2101.348          40.000  
G15  21482815.394   112892962.090         611.341          43.000    21482811.517    87968541.331         476.270          38.000  
G16  23267462.084   122271332.009        1652.164          40.000    23267457.706    95276362.259        1287.407          30.000  
G18  20391081.276   107155856.653        1020.162          44.000    20391076.165    83498070.272         794.938          37.000  
G20  20212953.706   106219790.117       -1002.224          43.000    20212948.292    82768668.726        -780.949          36.000  
G21  21846120.042   114802128.911       -1736.039          44.000    21846113.877    89456216.769       -1352.751          35.000  
G23  20480305.471   107624729.518       -1274.111          43.000    20480301.004    83863430.357        -992.806          37.000  
G26  24430852.753   128384820.397        2972.027          38.000    24430847.196   100040250.802        2315.795          33.000  
G27  22500113.846   118238898.651       -2559.894          42.000    22500110.665    92134217.157       -1994.865          38.000  
R 2  20476040.600   109264078.558        2740.234          47.000    20476038.634    84983171.887        2131.246          40.000  
R 3  19451226.652   104123936.203       -1414.217          46.000    19451220.147    80985284.506       -1099.937          41.000  
R 4  22537491.357   120687244.886       -4256.569          41.000    22537486.657    93867855.243       -3310.778          36.000  
R17  21252457.224   113726195.912        3225.133          45.000    21252453.454    88453715.780        2508.603          39.000  
R18  19195103.102   102464765.282         -53.376          45.000    19195102.244    79694820.103         -41.552          41.000  
E 3  26686751.252   140239814.836       -3105.523          39.000                                                                  
E 5  24154991.742   126935343.326       -1192.326          44.000                                                                  
E 9  23605260.828   124046486.902        1633.143          43.000                                                                  
E15  25023014.020   131496828.891       -2171.674          41.000                                                                  
> 2020  7 18 22 58 40.8000000  0 18
G10  22282896.234   117097410.238       -2696.509          43.000    22282894.983    91244734.304       -2101.006          40.000  
G15  21482838.499   112893083.597         611.691          43.000    21482834.443    87968635.972         476.433          38.000  
G16  23267524.840   122271661.671        1652.425          40.000    23267520.730    95276619.059        1287.608          30.000  
G18  20391119.873   107156059.952        1020.594          44.000    20391114.995    83498228.666         795.273          37.000  
G20  20212915.466   106219588.966       -1001.621          43.000    20212910.034    82768511.969        -780.480          36.000  
G21  21846053.802   114801780.941       -1735.741          44.000    21846047.619    89455945.594       -1352.520          36.000  
G23  20480256.814   107624473.942       -1273.693          43.000    20480252.597    83863231.177        -992.486          36.000  
G26  24430965.703   128385414.016        2972.124          37.000    24430959.825   100040713.387        2315.967          33.000  
G27  22500016.263   118238385.927       -2559.604          42.000    22500012.832    92133817.659       -1994.455          38.000  
R 2  20476143.007   109264625.828        2740.547          46.000    20476141.256    84983597.523        2131.440          40.000  
R 3  19451173.652   104123652.606       -1413.710          46.000    19451167.148    80985063.943       -1099.438          41.000  
R 4  22537332.251   120686392.787       -4256.353          41.000    22537327.444    93867192.496       -3310.501          36.000  
R17  21252577.643   113726840.142        3225.274          45.000    21252573.873    88454216.843        2508.640          39.000  
R18  19195101.029   102464753.857         -52.937          45.000    19195100.260    79694811.214         -41.127          41.000  
E 3  26686632.852   140239192.985       -3105.135          38.000                                                                  
E 5  24154946.301   126935104.121       -1191.894          44.000                                                                  
E 9  23605322.869   124046812.743        1633.255          43.000                                                                  
E15  25022931.161   131496393.771       -2171.556          41.000                                                                  
> 2020  7 18 22 58 41.0000000  0 18
G10  22282793.397   117096870.100       -2696.375          43.000    22282792.004    91244313.403       -2101.169          40.000  
G15  21482861.621   112893205.066         611.780          43.000    21482857.708    87968730.637         476.634          38.000  
G16  23267587.632   122271991.336        1652.671          40.000    23267583.558    95276876.000        1287.802          30.000  
G18  20391158.524   107156263.194        1020.579          44.000    20391153.770    83498387.076         795.259          37.000  
G20  20212877.191   106219387.769       -1001.554          43.000    20212871.669    82768355.214        -780.427          36.000  
G21  21845987.561   114801432.907       -1735.726          44.000    21845981.271    89455674.426       -1352.513          36.000  
G23  20480208.228   107624218.334       -1273.641          43.000    20480203.689    83863032.064        -992.441          37.000  
G26  24431078.689   128386007.564        2972.139          37.000    24431073.061   100041175.924        2316.056          34.000  
G27  22499918.770   118237873.161       -2559.380          43.000    22499915.017    92133418.092       -1994.440          38.000  
R 2  20476245.415   109265173.059        2740.592          46.000    20476243.914    84984023.161        2131.619          40.000  
R 3  19451120.617   104123368.979       -1413.591          46.000    19451114.077    80984843.318       -1099.564          41.000  
R 4  22537173.270   120685540.618       -4256.450          41.000    22537168.321    93866529.731       -3310.360          36.000  
R17  21252698.116   113727484.369        3225.580          45.000    21252694.239    88454717.904        2508.804          39.000  
R18  19195099.063   102464742.398         -52.743          46.000    19195098.223    79694802.293         -41.016          41.000  
E 3  26686514.434   140238571.041       -3105.270          38.000                                                                  
E 5  24154900.824   126934864.879       -1191.849          44.000                                                                  
E 9  23605384.768   124047138.572        1633.568          43.000                                                                  
E15  25022848.266   131495958.637       -2171.339          41.000                                                                  
> 2020  7 18 22 58 41.2000000  0 18
G10  22282690.668   117096329.965       -2696.776          43.000    22282689.310    91243892.539       -2101.289          41.000  
G15  21482884.690   112893326.622         611.885          42.000    21482880.938    87968825.363         476.672          38.000  
G16  23267650.388   122272320.974        1652.068          40.000    23267646.224    95277132.829        1287.332          30.000  
G18  20391197.246   107156466.487        1020.497          44.000    20391192.582    83498545.447         795.199          37.000  
G20  20212838.880   106219186.609       -1001.762          43.000    20212833.644    82768198.458        -780.591          36.000  
G21  21845921.321   114801084.893       -1736.196          44.000    21845915.227    89455403.221       -1352.878          36.000  
G23  20480159.588   107623962.753       -1273.902          43.000    20480155.371    83862832.880        -992.650          36.000  
G26  24431191.514   128386601.170        2971.834          37.000    24431186.743   100041638.411        2315.408          34.000  
G27  22499821.241   118237360.378       -2560.014          43.000    22499817.363    92133018.555       -1994.596          38.000  
R 2  20476347.876   109265720.347        2740.524          46.000    20476346.625    84984448.813        2131.432          40.000  
R 3  19451067.671   104123085.418       -1413.718          46.000    19451061.167    80984622.792       -1099.460          40.000  
R 4  22537014.165   120684688.476       -4256.748          41.000    22537009.358    93865866.947       -3310.673          36.000  
R17  21252818.643   113728128.662        3225.639          45.000    21252814.497    88455219.009        2508.700          39.000  
R18  19195097.026   102464731.003         -52.907          46.000    19195096.008    79694793.416         -41.246          41.000  
